lat	lon	Name	Spezialisierung	Anzahl Plätze	Anzahl Plätze	Adresse
47.55393337	7.575958969	BSB: Tagesbetreuung Weiherweg	Allgemeine Tagespflegeeinrichtung 	10		Rudolfstrasse 43, 4054 Basel
47.57172861	7.616583161	Sternenhof: Tagesbetreuung Egliseeholz	Allgemeine Tagespflegeeinrichtung 	52		Fasanenstrasse 221, 4058 Basel
47.56888591	7.567477054	Sternenhof: Tagesbetreuung Luzernerring	Allgemeine Tagespflegeeinrichtung 	25		Luzernerring 94, 4056 Basel
47.58745942	7.654611294	Wendelin: Tagesheim	Allgemeine Tagespflegeeinrichtung 	21		Inzlingerstrasse 46, 4125 Riehen
47.56589273	7.596732747	dandelion: Tagesbetreuung	Spezialisierte Tagespflegeeinrichtung: Demenz		12	Sperrstrasse 100, 4057 Basel
47.56854322	7.567077517	Sternenhof: Tagesbetreuung Luzernerring	Spezialisierte Tagespflegeeinrichtung: Demenz		13	Luzernerring 94, 4056 Basel
47.55810846	7.570976082	Stiftung Basler Wirrgarten: Tagesstätte im ATRIUM	Spezialisierte Tagespflegeeinrichtung: Demenz		18	Schönenbuchstrasse 9, 4055 Basel
47.56218668	7.595759269	Sternenhof: Tagesbetreuung T65+	Spezialisierte Tagespflegeeinrichtung: Psychische Beeinträchtigung		19	Fasanenstrasse 221, 4058 Basel